nombre,latitud,longitud,direccion,tipo_comida,horarios
Se침or Bigotes 游꼢,-12.0686101706571,-77.0774796709857,Av. Universitaria 123,Hamburguesas,Lunes a Viernes: 12:00 - 22:00
Emolientando 游꽀,-12.06833191426253,-77.0776218609273,Jr. Libertad 456,Emoliente,Lunes a S치bado: 11:00 - 20:00
Canchitas por Samuel 游,-12.06892829776406,-77.0776511772523,Calle San Mart칤n 789,Canchita,Lunes a Domingos: 15:00 - 22:00
Camilon 游꺐,-12.06947260978392,-77.0776767558258,Av. Universitaria 123,Salchipapas,Lunes a Viernes: 12:00 - 22:00
Morocho 游삃,-12.06981750544152,-77.0777069053313,Jr. Libertad 456,Mazamorra,Lunes a S치bado: 11:00 - 20:00
Yuquitas Do침a Florinda 游븨,-12.07027792140242,-77.0777622907962,Calle San Mart칤n 789,Yuquitas fritas,Lunes a Domingos: 11:00 - 22:00
